"WptName","GR(6)","Hill Name","Height","GridZN","GridEast","GridNorth","Latitude","Longitude","Climbed?"
"0936.m","NN660775","A' Bhuidheanach Bheag"," 936.0","NN","66059","77594","56.87034200","-4.1990010",""
"0997.M","NH136714","A' Chailleach"," 997.0","NH","13621","71416","57.69380000","-5.1287150",""
"0929.m","NH681041","A' Chailleach"," 929.2","NH","68110","04178","57.10956400","-4.1792850",""
"1120.M","NH094147","A' Chraileag (A' Chralaig)","1120.0","NH","09431","14791","57.18418600","-5.1548370",""
"0918.M","NH008231","A' Ghlas-bheinn"," 918.0","NH","00822","23105","57.25509000","-5.3036870",""
"0967.M","NH007749","A' Mhaighdean"," 967.0","NH","00776","74912","57.71964400","-5.3467200",""
"0973.m","NN604762","A' Mharconaich"," 973.2","NN","60423","76293","56.85700200","-4.2906680",""
"0934.m","NG465253","Am Basteir"," 934.0","NG","46563","25301","57.24793100","-6.2029820",""
"1032.M","NN176650","Am Bodach","1031.8","NN","17637","65097","56.74172700","-4.9833930",""
"0953.M","NH303793","Am Faochagach"," 953.0","NH","30361","79372","57.77180100","-4.8538990",""
"0996.M","NN378193","An Caisteal"," 995.8","NN","37873","19343","56.33860000","-4.6243680",""
"0924.m","NH241680","An Coileachan"," 923.9","NH","24172","68024","57.66762500","-4.9494980",""
"0981.M","NN187669","An Gearanach"," 981.4","NN","18772","66989","56.75914300","-4.9662030",""
"1129.M","NH133344","An Riabhachan","1129.0","NH","13363","34482","57.36242900","-5.1047280",""
"1007.M","NN933836","An Sgarsoch","1006.5","NN","93339","83685","56.93210900","-3.7542940",""
"1069.M","NH100332","An Socach","1069.0","NH","10061","33274","57.35022900","-5.1586030",""
"0944.M","NO079800","An Socach"," 944.0","NO","07939","80015","56.90228600","-3.5131480",""
"0921.m","NH088229","An Socach"," 921.0","NH","08817","22997","57.25753300","-5.1712930",""
"1117.m","NN638431","An Stuc","1117.1","NN","63890","43103","56.56009300","-4.2162580",""
"1063.M","NH068843","An Teallach-Bidein a' Ghlas Thuill","1062.5","NH","06896","84366","57.80709800","-5.2517670",""
"1059.m","NH064836","An Teallach-Sgurr Fiona","1058.6","NH","06406","83679","57.80072600","-5.2594430",""
"1020.M","NH051083","Aonach air Chrith","1019.5","NH","05103","08354","57.12464000","-5.2212910",""
"1234.M","NN197715","Aonach Beag","1234.0","NN","19707","71502","56.79999800","-4.9541210",""
"1116.m","NN457741","Aonach Beag","1115.8","NN","45786","74190","56.83349600","-4.5291810",""
"0952.m","NN161583","Aonach Eagach-Meall Dearg"," 952.2","NN","16124","58363","56.68072000","-5.0032710",""
"0968.M","NN140583","Aonach Eagach-Sgorr nam Fiannaidh"," 967.7","NN","14044","58304","56.67936900","-5.0371250",""
"1001.M","NH048137","Aonach Meadhoin","1001.0","NH","04885","13766","57.17308200","-5.2291210",""
"1221.m","NN193729","Aonach Mor","1221.0","NN","19304","72961","56.81293200","-4.9617440",""
"1024.M","NN056558","Beinn a' Bheithir-Sgorr Dhearg","1024.0","NN","05684","55846","56.65392100","-5.1715100",""
"1001.M","NN040555","Beinn a' Bheithir-Sgorr Dhonuill","1001.0","NN","04058","55540","56.65049900","-5.1977570",""
"1197.M","NJ092006","Beinn a' Bhuird (Beinn a' Bhuird North Top)","1197.0","NJ","09231","00621","57.08759000","-3.4993660",""
"1083.M","NJ045013","Beinn a' Chaorainn","1083.0","NJ","04515","01361","57.09328100","-3.5774340",""
"1052.M","NN386850","Beinn a' Chaorainn","1052.0","NN","38606","85063","56.92863400","-4.6536280",""
"1087.M","NN471781","Beinn a' Chlachair","1087.0","NN","47122","78155","56.86952500","-4.5096840",""
"0916.m","NN250256","Beinn a' Chleibh"," 916.3","NN","25054","25606","56.39023100","-4.8356320",""
"0980.M","NN109328","Beinn a' Chochuill"," 980.0","NN","10978","32848","56.44978100","-5.0685360",""
"1081.M","NN373440","Beinn a' Chreachain","1080.6","NN","37387","44075","56.56038200","-4.6476180",""
"0941.m","NN387185","Beinn a' Chroin"," 941.4","NN","38755","18573","56.33198700","-4.6096380",""
"1070.M","NN945724","Beinn a' Ghlo-Braigh Coire Chruinn-bhalgain","1070.0","NN","94563","72403","56.83108300","-3.7295050",""
"0976.M","NN936698","Beinn a' Ghlo-Carn Liath"," 976.0","NN","93606","69831","56.80777000","-3.7441060",""
"1122.M","NN971733","Beinn a' Ghlo-Carn nan Gabhar","1121.9","NN","97119","73309","56.83979200","-3.6880040",""
"1039.M","NN344432","Beinn Achaladair","1038.5","NN","34468","43242","56.55188700","-4.6945250",""
"0986.M","NG865612","Beinn Alligin-Sgurr Mhor"," 986.0","NG","86565","61270","57.59082000","-5.5727640",""
"0922.M","NG859601","Beinn Alligin-Tom na Gruagaich"," 922.0","NG","85958","60153","57.58051900","-5.5819120",""
"1004.M","NN331408","Beinn an Dothaidh","1004.0","NN","33178","40868","56.53013000","-4.7139640",""
"1019.M","NN517717","Beinn Bheoil","1019.0","NN","51716","71722","56.81327600","-4.4306620",""
"0931.m","NO058970","Beinn Bhreac"," 931.0","NO","05870","97075","57.05507200","-3.5534720",""
"1157.M","NN954922","Beinn Bhrotain","1157.0","NN","95413","92292","57.00986800","-3.7237970",""
"0949.M","NN203187","Beinn Bhuidhe"," 948.5","NN","20368","18717","56.32666200","-4.9067220",""
"0932.M","NN367179","Beinn Chabhair"," 932.1","NN","36760","17957","56.32577500","-4.6414850",""
"1084.M","NH259811","Beinn Dearg","1084.0","NH","25933","81183","57.78635000","-4.9295570",""
"1009.M","NN852778","Beinn Dearg","1008.7","NN","85296","77800","56.87734600","-3.8837190",""
"1076.M","NN325378","Beinn Dorain","1076.0","NN","32554","37855","56.50287000","-4.7221570",""
"0978.M","NN307254","Beinn Dubhchraig"," 978.0","NN","30763","25493","56.39129500","-4.7431930",""
"1103.m","NN449733","Beinn Eibhinn","1103.2","NN","44965","73302","56.82525400","-4.5420820",""
"1010.M","NG951611","Beinn Eighe-Ruadh-stac Mor","1010.0","NG","95142","61152","57.59373500","-5.4294540",""
"0993.M","NG966597","Beinn Eighe-Spidean Coire nan Clach"," 993.0","NG","96615","59780","57.58209800","-5.4037060",""
"0989.M","NN135327","Beinn Eunaich"," 989.0","NN","13562","32797","56.45035200","-5.0266390",""
"1032.M","NH018192","Beinn Fhada","1032.0","NH","01855","19253","57.22099300","-5.2835180",""
"1005.M","NH115282","Beinn Fhionnlaidh","1004.7","NH","11560","28271","57.30597700","-5.1299090",""
"0959.M","NN095497","Beinn Fhionnlaidh"," 959.0","NN","09509","49769","56.60097900","-5.1047330",""
"1103.m","NN625404","Beinn Ghlas","1103.0","NN","62530","40463","56.53599600","-4.2369760",""
"1011.M","NN254084","Beinn Ime","1011.0","NN","25496","08490","56.23681200","-4.8171420",""
"1045.M","NO045792","Beinn Iutharn Mhor","1045.0","NO","04566","79279","56.89499400","-3.5682290",""
"0926.M","NG964519","Beinn Liath Mhor"," 926.0","NG","96409","51981","57.51207400","-5.4006170",""
"0954.m","NH219724","Beinn Liath Mhor Fannaich"," 954.0","NH","21960","72411","57.70610400","-4.9897760",""
"0953.M","NN373411","Beinn Mhanach"," 953.0","NN","37370","41140","56.53404000","-4.6460590",""
"1183.M","NJ024016","Beinn Mheadhoin","1182.9","NJ","02460","01695","57.09584900","-3.6114640",""
"0935.M","NN376695","Beinn na Lap"," 935.0","NN","37616","69585","56.78939000","-4.6599940",""
"0960.M","NN148405","Beinn nan Aighenan"," 960.0","NN","14851","40528","56.52022100","-5.0112490",""
"0927.M","NN271066","Beinn Narnain"," 927.0","NN","27168","06655","56.22095600","-4.7890030",""
"0974.M","NG835126","Beinn Sgritheall"," 974.0","NG","83588","12682","57.15381600","-5.5797110",""
"0937.M","NN053460","Beinn Sgulaird"," 937.0","NN","05303","46088","56.56623200","-5.1703650",""
"1077.M","NN413383","Beinn Sheasgarnaich (Beinn Heasgarnich)","1077.4","NN","41380","38339","56.51027200","-4.5792180",""
"0937.M","NH039727","Beinn Tarsuinn"," 937.0","NH","03962","72794","57.70205200","-5.2916010",""
"0915.M","NN361859","Beinn Teallach"," 914.6","NN","36136","85973","56.93592800","-4.6947570",""
"0946.m","NN416196","Beinn Tulaichean"," 945.8","NN","41660","19604","56.34221600","-4.5633300",""
"1010.M","NN579739","Beinn Udlamain","1010.2","NN","57945","73975","56.83544400","-4.3299760",""
"1148.M","NN496718","Ben Alder","1148.0","NN","49616","71855","56.81379600","-4.4650890",""
"1171.M","NJ131018","Ben Avon-Leabaidh an Daimh Bhuidhe","1171.0","NJ","13194","01845","57.09934700","-3.4344220",""
"1025.M","NN386322","Ben Challum (Beinn Challuim)","1025.0","NN","38685","32235","56.45457300","-4.6191840",""
"0931.M","NN773308","Ben Chonzie"," 931.0","NN","77324","30857","56.45385100","-3.9920570",""
"1127.M","NN069304","Ben Cruachan","1127.0","NN","06962","30472","56.42683900","-5.1318280",""
"0927.M","NC477501","Ben Hope"," 927.0","NC","47750","50151","58.41311300","-4.6078600",""
"0962.M","NC585299","Ben Klibreck-Meall nan Con"," 962.1","NC","58530","29921","58.23520200","-4.4111300",""
"1214.M","NN635414","Ben Lawers","1214.0","NN","63553","41424","56.54492200","-4.2208600",""
"0974.M","NN367028","Ben Lomond"," 974.0","NN","36707","02863","56.19029300","-4.6330090",""
"1130.M","NN266262","Ben Lui (Beinn Laoigh)","1130.0","NN","26634","26288","56.39693200","-4.8105200",""
"1309.M","NN988989","Ben Macdui (Beinn Macduibh)","1309.0","NN","98899","98943","57.07036800","-3.6690990",""
"1174.M","NN432244","Ben More","1174.0","NN","43276","24417","56.38595200","-4.5400870",""
"0966.M","NM525330","Ben More"," 966.0","NM","52576","33078","56.42482900","-6.0140150",""
"0998.M","NC318201","Ben More Assynt"," 998.0","NC","31830","20150","58.13816400","-4.8582080",""
"1345.M","NN166712","Ben Nevis","1344.5","NN","16666","71288","56.79689100","-5.0036750",""
"1029.M","NN287253","Ben Oss","1029.0","NN","28761","25348","56.38927200","-4.7754880",""
"1078.M","NN125427","Ben Starav","1078.0","NN","12573","42709","56.53887600","-5.0497930",""
"0916.M","NN277098","Ben Vane"," 915.8","NN","27754","09844","56.24978600","-4.7816390",""
"0985.M","NN629189","Ben Vorlich"," 985.0","NN","62911","18916","56.34268000","-4.2194640",""
"0943.M","NN295124","Ben Vorlich"," 943.0","NN","29509","12474","56.27402100","-4.7550460",""
"1046.M","NH462683","Ben Wyvis-Glas Leathad Mor","1046.0","NH","46296","68379","57.67891400","-4.5792660",""
"1149.M","NN143542","Bidean nam Bian","1149.4","NN","14341","54211","56.64276800","-5.0293350",""
"0945.M","NH049412","Bidein a' Choire Sheasgaich"," 945.0","NH","04906","41265","57.41971800","-5.2504730",""
"0943.M","NN221677","Binnein Beag"," 943.0","NN","22172","67712","56.76694200","-4.9111760",""
"1130.M","NN212663","Binnein Mor","1130.0","NN","21219","66351","56.75436700","-4.9257950",""
"0929.M","NG529217","Bla Bheinn (Blabheinn) (Blaven)"," 929.0","NG","52990","21743","57.21956500","-6.0932100",""
"1296.M","NN953999","Braeriach","1296.0","NN","95327","99915","57.07829800","-3.7283890",""
"0998.m","NO240815","Broad Cairn"," 998.0","NO","24057","81568","56.91915700","-3.2490660",""
"0958.m","NG460252","Bruach na Frithe"," 958.0","NG","46084","25200","57.24676100","-6.2107950",""
"0925.M","NN191548","Buachaille Etive Beag-Stob Coire Raineach"," 925.0","NN","19135","54800","56.64992900","-4.9516850",""
"0958.M","NN179535","Buachaille Etive Beag-Stob Dubh"," 958.0","NN","17909","53541","56.63815800","-4.9707630",""
"1021.M","NN222542","Buachaille Etive Mor-Stob Dearg","1021.4","NN","22265","54254","56.64622900","-4.9003360",""
"0953.m","NN190525","Buachaille Etive Mor-Stob na Broige"," 953.4","NN","19072","52568","56.62988000","-4.9511510",""
"1090.M","NJ041063","Bynack More","1090.0","NJ","04190","06373","57.13822000","-3.5847160",""
"1012.m","NO222825","Cairn Bannoch","1012.0","NO","22288","82555","56.92772800","-3.2784030",""
"1245.m","NJ005040","Cairn Gorm","1244.8","NJ","00516","04065","57.11671400","-3.6444770",""
"1064.m","NO185788","Cairn of Claise","1064.0","NO","18549","78890","56.89417000","-3.3386370",""
"1291.M","NN963972","Cairn Toul","1291.0","NN","96328","97228","57.05439700","-3.7107730",""
"0964.M","NN915758","Carn a' Chlamain"," 963.5","NN","91591","75807","56.86096800","-3.7796290",""
"1110.m","NO226845","Carn a' Choire Bhoidheach","1109.9","NO","22673","84557","56.94577300","-3.2727070",""
"0975.M","NO107767","Carn a' Gheoidh"," 975.0","NO","10703","76700","56.87306500","-3.4666160",""
"1037.M","NN994951","Carn a' Mhaim","1037.0","NN","99457","95199","57.03687100","-3.6584000",""
"0994.M","NN904841","Carn an Fhidhleir (Carn Ealar)"," 994.1","NN","90467","84179","56.93587400","-3.8016750",""
"1029.M","NO028772","Carn an Righ","1029.0","NO","02871","77267","56.87657400","-3.5952720",""
"1047.m","NO208842","Carn an t-Sagairt Mor","1047.0","NO","20810","84280","56.94297300","-3.3032270",""
"1019.m","NO174804","Carn an Tuirc","1019.0","NO","17453","80483","56.90828200","-3.3571420",""
"0915.m","NO133791","Carn Aosda"," 915.3","NO","13397","79164","56.89569600","-3.4232740",""
"0945.M","NO051832","Carn Bhac"," 945.1","NO","05104","83225","56.93054100","-3.5608800",""
"1034.M","NN504764","Carn Dearg","1034.0","NN","50416","76444","56.85524200","-4.4546930",""
"0946.M","NH635023","Carn Dearg"," 945.7","NH","63568","02398","57.09226100","-4.2532460",""
"0941.M","NN417661","Carn Dearg"," 941.0","NN","41773","66143","56.75993100","-4.5898880",""
"1183.M","NH123261","Carn Eige (Carn Eighe)","1182.8","NH","12355","26197","57.28770100","-5.1151590",""
"0957.m","NH145125","Carn Ghluasaid"," 957.0","NH","14576","12522","57.16595000","-5.0681580",""
"1029.M","NN635500","Carn Gorm","1029.0","NN","63513","50078","56.62259900","-4.2260730",""
"1006.m","NN472903","Carn Liath","1006.0","NN","47227","90326","56.97878400","-4.5153050",""
"1042.M","NN684512","Carn Mairg","1042.0","NN","68491","51258","56.63461700","-4.1456070",""
"1220.M","NN177721","Carn Mor Dearg","1220.0","NN","17748","72172","56.80524600","-4.9866160",""
"0941.M","NN677821","Carn na Caim"," 940.8","NN","67700","82153","56.91173900","-4.1744780",""
"0993.M","NH181343","Carn nan Gobhar"," 993.0","NH","18188","34362","57.36330400","-5.0245440",""
"0992.m","NH273438","Carn nan Gobhar"," 992.0","NH","27303","43890","57.45233100","-4.8799350",""
"0920.m","NH683058","Carn Sgulain"," 920.3","NH","68302","05821","57.12437100","-4.1769860",""
"1046.M","NN377741","Chno Dearg","1046.0","NN","37741","74115","56.83008600","-4.6608310",""
"0979.M","NH062166","Ciste Dhubh"," 979.0","NH","06237","16619","57.19924300","-5.2090160",""
"0978.M","NH275816","Cona' Mheall"," 978.0","NH","27510","81641","57.79106800","-4.9034000",""
"0987.m","NC303199","Conival"," 987.0","NC","30330","19938","58.13568900","-4.8834970",""
"0946.m","NH087077","Creag a' Mhaim"," 946.0","NH","08790","07772","57.12097100","-5.1600480",""
"0988.m","NO154745","Creag Leacach"," 988.2","NO","15468","74548","56.85463100","-3.3877510",""
"1128.M","NN418875","Creag Meagaidh","1128.0","NN","41840","87547","56.95203300","-4.6021010",""
"1047.M","NN391361","Creag Mhor","1047.0","NN","39151","36111","56.48951900","-4.6140220",""
"0918.M","NG983112","Creag nan Damh"," 918.0","NG","98370","11201","57.14726300","-5.3345970",""
"0924.m","NN487814","Creag Pitridh"," 924.0","NN","48752","81459","56.89971300","-4.4849550",""
"1100.M","NN238506","Creise","1099.8","NN","23855","50645","56.61444900","-4.8719790",""
"1046.M","NN409212","Cruach Ardrain","1045.9","NN","40927","21215","56.35642900","-4.5761510",""
"1155.m","NO017980","Derry Cairngorm","1155.0","NO","01734","98032","57.06280100","-3.6220040",""
"0947.m","NO271735","Driesh"," 947.0","NO","27116","73588","56.84798500","-3.1965380",""
"0987.m","NH074084","Druim Shionnach"," 987.0","NH","07441","08485","57.12680300","-5.1828420",""
"0927.M","NH257842","Eididh nan Clach Geala"," 927.0","NH","25787","84215","57.81349200","-4.9342180",""
"0933.M","NH147621","Fionn Bheinn"," 933.0","NH","14749","62149","57.61114800","-5.1027130",""
"0919.M","NN025995","Gairich"," 919.0","NN","02589","99580","57.04487900","-5.2558270",""
"1013.M","NM909961","Garbh Chioch Mhor","1013.0","NM","90955","96101","57.00855600","-5.4443380",""
"1049.M","NN504811","Geal Charn","1049.0","NN","50432","81181","56.89776300","-4.4572360",""
"0926.m","NN561987","Geal Charn"," 926.0","NN","56144","98768","57.05741800","-4.3735720",""
"1132.M","NN469746","Geal-charn","1132.0","NN","46991","74629","56.83783600","-4.5097100",""
"0917.M","NN596782","Geal-charn"," 917.1","NN","59644","78261","56.87443300","-4.3045190",""
"0997.M","NN153429","Glas Bheinn Mhor"," 997.0","NN","15328","42979","56.54238900","-5.0052490",""
"1068.M","NO166765","Glas Maol","1068.0","NO","16699","76576","56.87305900","-3.3682360",""
"1051.M","NO051760","Glas Tulaichean","1051.0","NO","05105","76011","56.86575700","-3.5581630",""
"1035.M","NH039053","Gleouraich","1035.0","NH","03945","05345","57.09716300","-5.2380350",""
"0987.M","NN002875","Gulvain (Gaor Bheinn)"," 987.0","NN","00267","87574","56.93620200","-5.2845260",""
"1020.M","NG824039","Ladhar Bheinn","1020.0","NG","82400","03983","57.07526300","-5.5917450",""
"1023.M","NG911576","Liathach-Mullach an Rathain","1023.0","NG","91185","57691","57.56089100","-5.4925500",""
"1055.M","NG929579","Liathach-Spidean a' Choire Leith","1055.0","NG","92935","57970","57.56419800","-5.4635920",""
"1156.M","NO243861","Lochnagar-Cac Carn Beag","1156.0","NO","24372","86139","56.96026300","-3.2452610",""
"0939.M","NG869007","Luinne Bheinn"," 939.0","NG","86979","00740","57.04832500","-5.5136070",""
"0987.M","NH064404","Lurg Mhor"," 987.0","NH","06481","40451","57.41309100","-5.2236500",""
"1179.m","NH120253","Mam Sodhail","1179.4","NH","12007","25332","57.27980100","-5.1202670",""
"1005.m","NH135458","Maoile Lunndaidh","1004.9","NH","13506","45853","57.46447700","-5.1110020",""
"0933.M","NG924499","Maol Chean-dearg"," 933.0","NG","92406","49911","57.49169700","-5.4655490",""
"0980.m","NH032087","Maol Chinn-dearg"," 980.3","NH","03221","08769","57.12756000","-5.2526510",""
"0928.m","NO240737","Mayar"," 928.0","NO","24081","73749","56.84893600","-3.2463160",""
"1108.M","NN250503","Meall a' Bhuiridh","1107.9","NN","25063","50346","56.61221700","-4.8521270",""
"0926.M","NN612438","Meall a' Choire Leith"," 925.6","NN","61248","43882","56.56631200","-4.2596250",""
"0934.m","NH184733","Meall a' Chrasgaidh"," 934.0","NH","18482","73320","57.71286600","-5.0487420",""
"0946.M","NM848989","Meall Buidhe"," 946.0","NM","84898","98977","57.03155200","-5.5463340",""
"0932.M","NN498499","Meall Buidhe"," 932.1","NN","49838","49946","56.61722200","-4.4486400",""
"0951.M","NN716878","Meall Chuaich"," 951.0","NN","71648","87835","56.96385900","-4.1125690",""
"1069.M","NN615410","Meall Corranaich","1069.0","NN","61534","41047","56.54094600","-4.2534690",""
"1123.M","NN644437","Meall Garbh","1123.1","NN","64437","43757","56.56612200","-4.2077070",""
"0968.m","NN647516","Meall Garbh"," 968.0","NN","64707","51686","56.63738100","-4.2074720",""
"1040.M","NN514397","Meall Ghaordaidh","1039.8","NN","51442","39704","56.52580900","-4.4166540",""
"0959.M","NN431321","Meall Glas"," 959.0","NN","43148","32194","56.45571200","-4.5468210",""
"0949.m","NH221695","Meall Gorm"," 949.0","NH","22192","69585","57.68084600","-4.9838020",""
"1001.M","NN674438","Meall Greigh","1001.0","NN","67400","43808","56.56742600","-4.1595590",""
"0981.m","NN694496","Meall na Aighean"," 981.0","NN","69477","49668","56.62061800","-4.1287400",""
"0918.M","NN220924","Meall na Teanga"," 918.0","NN","22024","92470","56.98900300","-4.9309380",""
"0977.m","NH257825","Meall nan Ceapraichean"," 977.0","NH","25727","82547","57.79850500","-4.9340110",""
"0928.M","NN192449","Meall nan Eun"," 928.0","NN","19250","44903","56.56117700","-4.9428930",""
"1044.M","NN585389","Meall nan Tarmachan","1043.5","NN","58518","38998","56.52165500","-4.3013430",""
"1113.m","NN938942","Monadh Mor","1113.0","NN","93865","94216","57.02679100","-3.7500860",""
"0928.M","NH101499","Moruisg"," 928.0","NH","10114","49939","57.49971200","-5.1706300",""
"0939.M","NO409869","Mount Keen"," 939.0","NO","40905","86927","56.96975100","-2.9736220",""
"1019.m","NN882927","Mullach Clach a' Bhlair","1019.0","NN","88286","92702","57.01187900","-3.8412710",""
"1015.M","NH052735","Mullach Coire Mhic Fhearchair","1015.2","NH","05206","73511","57.70902200","-5.2713420",""
"1102.M","NH094171","Mullach Fraoch-choire","1102.0","NH","09491","17151","57.20537900","-5.1556520",""
"0982.m","NH080259","Mullach na Dheiragain"," 982.0","NH","08044","25917","57.28339900","-5.1863500",""
"0939.m","NN122662","Mullach nan Coirean"," 939.3","NN","12233","66243","56.74986600","-5.0724460",""
"1054.m","NN203652","Na Gruagaichean","1054.2","NN","20307","65200","56.74368700","-4.9398750",""
"0919.M","NH018756","Ruadh Stac Mor"," 918.7","NH","01853","75655","57.72678100","-5.3292880",""
"1002.m","NH133154","Sail Chaorainn (Sail Chaoruinn)","1002.0","NH","13321","15462","57.19180500","-5.0910810",""
"0956.m","NH017148","Saileag"," 956.0","NH","01774","14828","57.18127300","-5.2813320",""
"1083.M","NN713547","Schiehallion","1083.0","NN","71384","54768","56.66693300","-4.1002290",""
"0926.M","NH281878","Seana Bhraigh"," 926.0","NH","28181","87884","57.84733000","-4.8966200",""
"0991.M","NN598731","Sgairneach Mhor"," 991.0","NN","59882","73130","56.82844700","-4.2977920",""
"0920.M","NN462317","Sgiath Chuil"," 920.0","NN","46290","31793","56.45314900","-4.4956530",""
"1258.m","NN954976","Sgor an Lochain Uaine","1258.0","NN","95428","97693","57.05836900","-3.7257970",""
"0955.M","NN444674","Sgor Gaibhre"," 955.0","NN","44477","67447","56.77254400","-4.5464980",""
"1118.M","NN903989","Sgor Gaoith","1118.0","NN","90300","98961","57.06856100","-3.8108560",""
"0961.M","NG959505","Sgorr Ruadh"," 960.7","NG","95907","50506","57.49862200","-5.4077470",""
"1036.M","NH035143","Sgurr a' Bhealaich Dheirg","1036.0","NH","03517","14360","57.17782500","-5.2521770",""
"1053.M","NH087447","Sgurr a' Chaorachain","1053.0","NH","08749","44737","57.45249200","-5.1893000",""
"1083.M","NH258430","Sgurr a' Choire Ghlais","1083.0","NH","25835","43056","57.44428800","-4.9037570",""
"0973.m","NG445231","Sgurr a' Ghreadaidh"," 973.0","NG","44525","23125","57.22730400","-6.2344240",""
"0918.m","NG446235","Sgurr a' Mhadaidh"," 918.0","NG","44699","23512","57.23086800","-6.2319470",""
"1099.M","NN164667","Sgurr a' Mhaim","1099.0","NN","16465","66730","56.75592000","-5.0036900",""
"1027.M","NG983065","Sgurr a' Mhaoraich","1027.0","NG","98395","06551","57.10557300","-5.3304340",""
"0992.M","NG450207","Sgurr Alasdair"," 992.0","NG","45002","20784","57.20659800","-6.2241440",""
"1010.M","NH015098","Sgurr an Doire Leathain","1010.0","NH","01524","09889","57.13687000","-5.2815310",""
"1004.m","NH005104","Sgurr an Lochain","1004.0","NH","00580","10421","57.14123200","-5.2975270",""
"0989.M","NH055745","Sgurr Ban"," 989.0","NH","05581","74554","57.71853800","-5.2659030",""
"0999.M","NH158711","Sgurr Breac"," 999.0","NH","15816","71122","57.69206700","-5.0917240",""
"0999.m","NH076446","Sgurr Choinnich"," 999.2","NH","07625","44627","57.45102600","-5.2079160",""
"1094.M","NN227714","Sgurr Choinnich Mor","1094.0","NN","22771","71419","56.80043000","-4.9039600",""
"0986.M","NG444215","Sgurr Dearg-Inaccessible Pinnacle"," 986.0","NG","44404","21566","57.21327000","-6.2348190",""
"0944.m","NG457205","Sgurr Dubh Mor"," 944.0","NG","45758","20547","57.20489400","-6.2114210",""
"1010.M","NN230657","Sgurr Eilde Mor","1010.0","NN","23054","65788","56.75001500","-4.8954360",""
"1049.m","NH235437","Sgurr Fhuar-thuill","1049.0","NH","23580","43754","57.44968000","-4.9417800",""
"1069.M","NG978166","Sgurr Fhuaran","1068.7","NG","97849","16678","57.19615000","-5.3476500",""
"0948.m","NG450210","Sgurr Mhic Choinnich"," 948.0","NG","45021","21048","57.20897300","-6.2241010",""
"1108.M","NH203718","Sgurr Mor","1108.0","NH","20323","71818","57.70013300","-5.0167650",""
"1003.M","NM965980","Sgurr Mor","1003.0","NM","96535","98040","57.02843700","-5.3541880",""
"0965.m","NG440224","Sgurr na Banachdich"," 965.0","NG","44046","22448","57.22097200","-6.2416380",""
"1002.m","NG977158","Sgurr na Carnach","1002.0","NG","97715","15891","57.18903400","-5.3492240",""
"1040.M","NM902966","Sgurr na Ciche","1040.0","NM","90223","96684","57.01345200","-5.4568540",""
"1027.M","NG984149","Sgurr na Ciste Duibhe","1027.0","NG","98401","14953","57.18092400","-5.3371340",""
"0994.M","NN111517","Sgurr na h-Ulaidh (Sgor na h-Ulaidh)"," 994.0","NN","11117","51793","56.61978700","-5.0800590",""
"1151.M","NH161351","Sgurr na Lapaich","1151.0","NH","16103","35125","57.36931100","-5.0597260",""
"0993.M","NH289426","Sgurr na Ruaidhe"," 993.0","NH","28900","42615","57.44149700","-4.8524650",""
"0946.M","NG946113","Sgurr na Sgine"," 946.0","NG","94618","11368","57.14709800","-5.3966340",""
"1151.M","NH057228","Sgurr nan Ceathreamhnan (Sgurr nan Ceathramhnan)","1151.0","NH","05702","22851","57.25491100","-5.2227320",""
"1093.M","NH184714","Sgurr nan Clach Geala","1093.0","NH","18428","71474","57.69628700","-5.0482380",""
"0956.M","NM902880","Sgurr nan Coireachan"," 956.0","NM","90290","88013","56.93572800","-5.4485510",""
"0953.M","NM933958","Sgurr nan Coireachan"," 953.0","NM","93308","95827","57.00715800","-5.4054400",""
"1109.M","NH129138","Sgurr nan Conbhairean","1109.0","NH","12987","13895","57.17762100","-5.0954240",""
"0923.m","NH184697","Sgurr nan Each"," 923.0","NH","18464","69770","57.68101700","-5.0463510",""
"0926.m","NG457195","Sgurr nan Eag"," 926.2","NG","45705","19536","57.19581000","-6.2112640",""
"0964.M","NG471253","Sgurr nan Gillean"," 964.0","NG","47159","25303","57.24827800","-6.1931330",""
"0963.M","NM939879","Sgurr Thuilm"," 963.0","NM","93906","87980","56.93705600","-5.3892070",""
"0981.M","NH004690","Slioch"," 981.0","NH","00468","69076","57.66717600","-5.3470470",""
"0996.M","NH065043","Spidean Mialach"," 996.0","NH","06592","04306","57.08896400","-5.1936140",""
"0937.M","NN222945","Sron a' Choire Ghairbh"," 937.0","NN","22247","94560","57.00784000","-4.9287470",""
"1105.m","NN316736","Stob a' Choire Mheadhoin","1105.0","NN","31652","73643","56.82368500","-4.7601830",""
"0945.M","NN257459","Stob a' Choire Odhair"," 945.0","NN","25731","45982","56.57330800","-4.8383020",""
"1000.M","NN147654","Stob Ban"," 999.7","NN","14777","65443","56.74370600","-5.0303280",""
"0977.M","NN266723","Stob Ban"," 977.0","NN","26669","72394","56.81064700","-4.8408760",""
"1165.M","NN434227","Stob Binnein","1165.0","NN","43481","22712","56.37071700","-4.5357530",""
"1177.M","NN261738","Stob Choire Claurigh","1177.0","NN","26196","73878","56.82378600","-4.8496240",""
"1044.M","NN169443","Stob Coir' an Albannaich","1044.0","NN","16952","44305","56.55492100","-4.9798100",""
"0981.M","NN185660","Stob Coire a' Chairn"," 981.4","NN","18559","66062","56.75074400","-4.9690250",""
"1116.m","NN239725","Stob Coire an Laoigh","1116.0","NN","23984","72532","56.81087700","-4.8848910",""
"1115.M","NN308730","Stob Coire Easain","1115.0","NN","30802","73066","56.81819900","-4.7737100",""
"1072.m","NN154536","Stob Coire Sgreamhach","1072.0","NN","15487","53665","56.63832200","-5.0102850",""
"0979.m","NN356743","Stob Coire Sgriodain"," 979.0","NN","35669","74381","56.83174500","-4.6949180",""
"0999.m","NN094308","Stob Daimh (Stob Diamh)"," 999.2","NN","09482","30858","56.43132700","-5.0913190",""
"1090.M","NN230455","Stob Ghabhar","1090.0","NN","23017","45515","56.56810300","-4.8820990",""
"1054.m","NN428888","Stob Poite Coire Ardair","1054.0","NN","42885","88844","56.96403700","-4.5857450",""
"0975.M","NN617174","Stuc a' Chroin"," 975.0","NN","61746","17465","56.32931500","-4.2375330",""
"0960.M","NN483448","Stuchd an Lochain (Stuc an Lochain)"," 960.0","NN","48305","44840","56.57090700","-4.4706020",""
"0933.m","NO134773","The Cairnwell"," 933.0","NO","13486","77358","56.87950200","-3.4211980",""
"1004.m","NN976951","The Devil's Point","1004.0","NN","97610","95117","57.03572800","-3.6887880",""
"1011.M","NG936131","The Saddle","1011.4","NG","93610","13124","57.16239500","-5.4147210",""
"1054.M","NH194282","Toll Creagach","1054.0","NH","19401","28280","57.30922700","-4.9999530",""
"0958.m","NO210800","Tolmount"," 958.0","NO","21051","80017","56.90472500","-3.2979290",""
"1112.m","NH164273","Tom a' Choinich","1112.0","NH","16402","27331","57.29951800","-5.0489590",""
"0957.m","NO213787","Tom Buidhe"," 957.0","NO","21367","78774","56.89361500","-3.2923560",""
